  - name: Terras
    latitude: 52.2279639
    longitude: 4.5246975
    radius: 15
    icon: mdi:glass-cocktail
  - name: De 2 Wezen
    latitude: 52.2277867
    longitude: 4.5244654
    radius: 7
    icon: mdi:beer
  - name: Nog Eigen Wijzer
    latitude: 52.22773
    longitude: 4.52458
    radius: 7
    icon: mdi:food  
  - name: Op Eigen Wijze
    latitude: 52.22807
    longitude: 4.52439
    radius: 7
    icon: mdi:food
  - name: Parkzicht
    latitude: 52.22616
    longitude: 4.52163
    radius: 4
    icon: mdi:food
